{
  "type": "FeatureCollection",
  "name": "kenya_hospitals_per_county.csv",
  "features": [
    {
      "type": "Feature",
      "properties": {
        "Name": "Chemolingot District Hospital",
        "County": "Baringo",
        "Latitude": 0.9862,
        "Longitude": 35.9712
      },
      "geometry": {
        "type": "Point",
        "coordinates": [
          35.9712,
          0.9862
        ]
      }
    },
    {
      "type": "Feature",
      "properties": {
        "Name": "Eldama Ravine District Hospital",
        "County": "Baringo",
        "Latitude": 0.0473,
        "Longitude": 35.7302
      },
      "geometry": {
        "type": "Point",
        "coordinates": [
          35.7302,
          0.0473
        ]
      }
    },
    {
      "type": "Feature",
      "properties": {
        "Name": "Kabarnet District Hospital",
        "County": "Baringo",
        "Latitude": 0.4926,
        "Longitude": 35.7434
      },
      "geometry": {
        "type": "Point",
        "coordinates": [
          35.7434,
          0.4926
        ]
      }
    },
    {
      "type": "Feature",
      "properties": {
        "Name": "Kabartonjo District Hospital",
        "County": "Baringo",
        "Latitude": 0.6257,
        "Longitude": 35.7892
      },
      "geometry": {
        "type": "Point",
        "coordinates": [
          35.7892,
          0.6257
        ]
      }
    },
    {
      "type": "Feature",
      "properties": {
        "Name": "Longisa District Hospital",
        "County": "Bomet",
        "Latitude": -0.8579,
        "Longitude": 35.3894
      },
      "geometry": {
        "type": "Point",
        "coordinates": [
          35.3894,
          -0.8579
        ]
      }
    },
    {
      "type": "Feature",
      "properties": {
        "Name": "Bokoli Hospital",
        "County": "Bungoma",
        "Latitude": 0.7103,
        "Longitude": 34.6617
      },
      "geometry": {
        "type": "Point",
        "coordinates": [
          34.6617,
          0.7103
        ]
      }
    },
    {
      "type": "Feature",
      "properties": {
        "Name": "Bungoma County Referal Hospital",
        "County": "Bungoma",
        "Latitude": 0.5755,
        "Longitude": 34.5594
      },
      "geometry": {
        "type": "Point",
        "coordinates": [
          34.5594,
          0.5755
        ]
      }
    },
    {
      "type": "Feature",
      "properties": {
        "Name": "Kimilili District Hospital",
        "County": "Bungoma",
        "Latitude": 0.789,
        "Longitude": 34.7128
      },
      "geometry": {
        "type": "Point",
        "coordinates": [
          34.7128,
          0.789
        ]
      }
    },
    {
      "type": "Feature",
      "properties": {
        "Name": "Lumboka Memorial Hospital",
        "County": "Bungoma",
        "Latitude": 0.5679,
        "Longitude": 34.5639
      },
      "geometry": {
        "type": "Point",
        "coordinates": [
          34.5639,
          0.5679
        ]
      }
    },
    {
      "type": "Feature",
      "properties": {
        "Name": "Mt Elgon District Hospital",
        "County": "Bungoma",
        "Latitude": 0.845,
        "Longitude": 34.7129
      },
      "geometry": {
        "type": "Point",
        "coordinates": [
          34.7129,
          0.845
        ]
      }
    },
    {
      "type": "Feature",
      "properties": {
        "Name": "Sirisia Hospital",
        "County": "Bungoma",
        "Latitude": 0.7539,
        "Longitude": 34.5091
      },
      "geometry": {
        "type": "Point",
        "coordinates": [
          34.5091,
          0.7539
        ]
      }
    },
    {
      "type": "Feature",
      "properties": {
        "Name": "Busia District Hospital",
        "County": "Busia",
        "Latitude": 0.4604,
        "Longitude": 34.1045
      },
      "geometry": {
        "type": "Point",
        "coordinates": [
          34.1045,
          0.4604
        ]
      }
    },
    {
      "type": "Feature",
      "properties": {
        "Name": "Port Victoria Hospital",
        "County": "Busia",
        "Latitude": 0.0972,
        "Longitude": 33.9758
      },
      "geometry": {
        "type": "Point",
        "coordinates": [
          33.9758,
          0.0972
        ]
      }
    },
    {
      "type": "Feature",
      "properties": {
        "Name": "Sio Port District Hospital",
        "County": "Busia",
        "Latitude": 0.2251,
        "Longitude": 34.0213
      },
      "geometry": {
        "type": "Point",
        "coordinates": [
          34.0213,
          0.2251
        ]
      }
    },
    {
      "type": "Feature",
      "properties": {
        "Name": "Chebiemit District Hospital",
        "County": "Elgeyo Marakwet",
        "Latitude": 0.8533,
        "Longitude": 35.5024
      },
      "geometry": {
        "type": "Point",
        "coordinates": [
          35.5024,
          0.8533
        ]
      }
    },
    {
      "type": "Feature",
      "properties": {
        "Name": "Iten District Hospital",
        "County": "Elgeyo Marakwet",
        "Latitude": 0.6703,
        "Longitude": 35.5075
      },
      "geometry": {
        "type": "Point",
        "coordinates": [
          35.5075,
          0.6703
        ]
      }
    },
    {
      "type": "Feature",
      "properties": {
        "Name": "Embu Provincial General Hospital",
        "County": "Embu",
        "Latitude": -0.5368,
        "Longitude": 37.4518
      },
      "geometry": {
        "type": "Point",
        "coordinates": [
          37.4518,
          -0.5368
        ]
      }
    },
    {
      "type": "Feature",
      "properties": {
        "Name": "Mbeere District Hospital",
        "County": "Embu",
        "Latitude": -0.5769,
        "Longitude": 37.642
      },
      "geometry": {
        "type": "Point",
        "coordinates": [
          37.642,
          -0.5769
        ]
      }
    },
    {
      "type": "Feature",
      "properties": {
        "Name": "Runyenjes District Hospital",
        "County": "Embu",
        "Latitude": -0.4245,
        "Longitude": 37.5706
      },
      "geometry": {
        "type": "Point",
        "coordinates": [
          37.5706,
          -0.4245
        ]
      }
    },
    {
      "type": "Feature",
      "properties": {
        "Name": "Dagahaley Hospital",
        "County": "Garissa",
        "Latitude": -0.19,
        "Longitude": 40.2967
      },
      "geometry": {
        "type": "Point",
        "coordinates": [
          40.2967,
          -0.19
        ]
      }
    },
    {
      "type": "Feature",
      "properties": {
        "Name": "Garissa Provincial General Hospital",
        "County": "Garissa",
        "Latitude": -0.4278,
        "Longitude": 39.644
      },
      "geometry": {
        "type": "Point",
        "coordinates": [
          39.644,
          -0.4278
        ]
      }
    },
    {
      "type": "Feature",
      "properties": {
        "Name": "Hagadera Hospital",
        "County": "Garissa",
        "Latitude": 0.0107,
        "Longitude": 40.3715
      },
      "geometry": {
        "type": "Point",
        "coordinates": [
          40.3715,
          0.0107
        ]
      }
    },
    {
      "type": "Feature",
      "properties": {
        "Name": "Ifo 2 Hospital",
        "County": "Garissa",
        "Latitude": 0.1076,
        "Longitude": 40.3051
      },
      "geometry": {
        "type": "Point",
        "coordinates": [
          40.3051,
          0.1076
        ]
      }
    },
    {
      "type": "Feature",
      "properties": {
        "Name": "Ijara District Hospital",
        "County": "Garissa",
        "Latitude": -1.5957,
        "Longitude": 40.5143
      },
      "geometry": {
        "type": "Point",
        "coordinates": [
          40.5143,
          -1.5957
        ]
      }
    },
    {
      "type": "Feature",
      "properties": {
        "Name": "Homa Bay County Teaching and Referral Hospital",
        "County": "Homa Bay",
        "Latitude": -0.5305,
        "Longitude": 34.4606
      },
      "geometry": {
        "type": "Point",
        "coordinates": [
          34.4606,
          -0.5305
        ]
      }
    },
    {
      "type": "Feature",
      "properties": {
        "Name": "Mbita District Hospital",
        "County": "Homa Bay",
        "Latitude": -0.4225,
        "Longitude": 34.2082
      },
      "geometry": {
        "type": "Point",
        "coordinates": [
          34.2082,
          -0.4225
        ]
      }
    },
    {
      "type": "Feature",
      "properties": {
        "Name": "Rachuonyo District Hospital",
        "County": "Homa Bay",
        "Latitude": -0.5031,
        "Longitude": 34.7323
      },
      "geometry": {
        "type": "Point",
        "coordinates": [
          34.7323,
          -0.5031
        ]
      }
    },
    {
      "type": "Feature",
      "properties": {
        "Name": "Suba District Hospital",
        "County": "Homa Bay",
        "Latitude": -0.5888,
        "Longitude": 34.1625
      },
      "geometry": {
        "type": "Point",
        "coordinates": [
          34.1625,
          -0.5888
        ]
      }
    },
    {
      "type": "Feature",
      "properties": {
        "Name": "Garbatulla District Hospital",
        "County": "Isiolo",
        "Latitude": 0.5348,
        "Longitude": 38.5188
      },
      "geometry": {
        "type": "Point",
        "coordinates": [
          38.5188,
          0.5348
        ]
      }
    },
    {
      "type": "Feature",
      "properties": {
        "Name": "Isiolo District Hospital",
        "County": "Isiolo",
        "Latitude": 0.3648,
        "Longitude": 37.5888
      },
      "geometry": {
        "type": "Point",
        "coordinates": [
          37.5888,
          0.3648
        ]
      }
    },
    {
      "type": "Feature",
      "properties": {
        "Name": "Kajiado District Hospital",
        "County": "Kajiado",
        "Latitude": -2.9243,
        "Longitude": 37.5049
      },
      "geometry": {
        "type": "Point",
        "coordinates": [
          37.5049,
          -2.9243
        ]
      }
    },
    {
      "type": "Feature",
      "properties": {
        "Name": "Kenyatta National Hospital Ongata Rongai",
        "County": "Kajiado",
        "Latitude": -1.3962,
        "Longitude": 36.7919
      },
      "geometry": {
        "type": "Point",
        "coordinates": [
          36.7919,
          -1.3962
        ]
      }
    },
    {
      "type": "Feature",
      "properties": {
        "Name": "Loitokitok District Hospital",
        "County": "Kajiado",
        "Latitude": -2.9277,
        "Longitude": 37.5093
      },
      "geometry": {
        "type": "Point",
        "coordinates": [
          37.5093,
          -2.9277
        ]
      }
    },
    {
      "type": "Feature",
      "properties": {
        "Name": "Sucos Hospital",
        "County": "Kajiado",
        "Latitude": -1.5939,
        "Longitude": 36.9082
      },
      "geometry": {
        "type": "Point",
        "coordinates": [
          36.9082,
          -1.5939
        ]
      }
    },
    {
      "type": "Feature",
      "properties": {
        "Name": "Butere District Hospital",
        "County": "Kakamega",
        "Latitude": 0.2202,
        "Longitude": 34.4992
      },
      "geometry": {
        "type": "Point",
        "coordinates": [
          34.4992,
          0.2202
        ]
      }
    },
    {
      "type": "Feature",
      "properties": {
        "Name": "Iguhu District Hospital",
        "County": "Kakamega",
        "Latitude": 0.1661,
        "Longitude": 34.7451
      },
      "geometry": {
        "type": "Point",
        "coordinates": [
          34.7451,
          0.1661
        ]
      }
    },
    {
      "type": "Feature",
      "properties": {
        "Name": "Kakamega Provincial General Hospital",
        "County": "Kakamega",
        "Latitude": 0.275,
        "Longitude": 34.7588
      },
      "geometry": {
        "type": "Point",
        "coordinates": [
          34.7588,
          0.275
        ]
      }
    },
    {
      "type": "Feature",
      "properties": {
        "Name": "Malava District Hospital",
        "County": "Kakamega",
        "Latitude": 0.4487,
        "Longitude": 34.8539
      },
      "geometry": {
        "type": "Point",
        "coordinates": [
          34.8539,
          0.4487
        ]
      }
    },
    {
      "type": "Feature",
      "properties": {
        "Name": "Kapkatet District Hospital",
        "County": "Kericho",
        "Latitude": -0.6298,
        "Longitude": 35.1962
      },
      "geometry": {
        "type": "Point",
        "coordinates": [
          35.1962,
          -0.6298
        ]
      }
    },
    {
      "type": "Feature",
      "properties": {
        "Name": "Kericho District Hospital",
        "County": "Kericho",
        "Latitude": -0.369,
        "Longitude": 35.2794
      },
      "geometry": {
        "type": "Point",
        "coordinates": [
          35.2794,
          -0.369
        ]
      }
    },
    {
      "type": "Feature",
      "properties": {
        "Name": "Londiani District Hospital",
        "County": "Kericho",
        "Latitude": -0.1663,
        "Longitude": 35.5924
      },
      "geometry": {
        "type": "Point",
        "coordinates": [
          35.5924,
          -0.1663
        ]
      }
    },
    {
      "type": "Feature",
      "properties": {
        "Name": "Sigowet Sub-District Hospital",
        "County": "Kericho",
        "Latitude": -0.3982,
        "Longitude": 35.0497
      },
      "geometry": {
        "type": "Point",
        "coordinates": [
          35.0497,
          -0.3982
        ]
      }
    },
    {
      "type": "Feature",
      "properties": {
        "Name": "Caritas community Hospital",
        "County": "Kiambu",
        "Latitude": -1.069,
        "Longitude": 37.1698
      },
      "geometry": {
        "type": "Point",
        "coordinates": [
          37.1698,
          -1.069
        ]
      }
    },
    {
      "type": "Feature",
      "properties": {
        "Name": "Gatundu District Hospital",
        "County": "Kiambu",
        "Latitude": -1.0157,
        "Longitude": 36.9058
      },
      "geometry": {
        "type": "Point",
        "coordinates": [
          36.9058,
          -1.0157
        ]
      }
    },
    {
      "type": "Feature",
      "properties": {
        "Name": "Kiambu District Hospital",
        "County": "Kiambu",
        "Latitude": -1.1694,
        "Longitude": 36.8299
      },
      "geometry": {
        "type": "Point",
        "coordinates": [
          36.8299,
          -1.1694
        ]
      }
    },
    {
      "type": "Feature",
      "properties": {
        "Name": "Thika Level 5 Hospital",
        "County": "Kiambu",
        "Latitude": -1.0415,
        "Longitude": 37.0763
      },
      "geometry": {
        "type": "Point",
        "coordinates": [
          37.0763,
          -1.0415
        ]
      }
    },
    {
      "type": "Feature",
      "properties": {
        "Name": "Tigoni District Hospital",
        "County": "Kiambu",
        "Latitude": -1.1265,
        "Longitude": 36.6722
      },
      "geometry": {
        "type": "Point",
        "coordinates": [
          36.6722,
          -1.1265
        ]
      }
    },
    {
      "type": "Feature",
      "properties": {
        "Name": "Kilifi District Hospital",
        "County": "Kilifi",
        "Latitude": -3.6321,
        "Longitude": 39.8572
      },
      "geometry": {
        "type": "Point",
        "coordinates": [
          39.8572,
          -3.6321
        ]
      }
    },
    {
      "type": "Feature",
      "properties": {
        "Name": "Malindi District Hospital",
        "County": "Kilifi",
        "Latitude": -3.2165,
        "Longitude": 40.1182
      },
      "geometry": {
        "type": "Point",
        "coordinates": [
          40.1182,
          -3.2165
        ]
      }
    },
    {
      "type": "Feature",
      "properties": {
        "Name": "Mariakani District Hospital",
        "County": "Kilifi",
        "Latitude": -3.8567,
        "Longitude": 39.4939
      },
      "geometry": {
        "type": "Point",
        "coordinates": [
          39.4939,
          -3.8567
        ]
      }
    },
    {
      "type": "Feature",
      "properties": {
        "Name": "Kerugoya District Hospital",
        "County": "Kirinyaga",
        "Latitude": -0.5013,
        "Longitude": 37.2805
      },
      "geometry": {
        "type": "Point",
        "coordinates": [
          37.2805,
          -0.5013
        ]
      }
    },
    {
      "type": "Feature",
      "properties": {
        "Name": "Gucha District Hospital",
        "County": "Kisii",
        "Latitude": -0.794,
        "Longitude": 34.7255
      },
      "geometry": {
        "type": "Point",
        "coordinates": [
          34.7255,
          -0.794
        ]
      }
    },
    {
      "type": "Feature",
      "properties": {
        "Name": "Iyabe District Hospital",
        "County": "Kisii",
        "Latitude": -0.691,
        "Longitude": 34.6799
      },
      "geometry": {
        "type": "Point",
        "coordinates": [
          34.6799,
          -0.691
        ]
      }
    },
    {
      "type": "Feature",
      "properties": {
        "Name": "Kenyenya District Hospital",
        "County": "Kisii",
        "Latitude": -0.8863,
        "Longitude": 34.7289
      },
      "geometry": {
        "type": "Point",
        "coordinates": [
          34.7289,
          -0.8863
        ]
      }
    },
    {
      "type": "Feature",
      "properties": {
        "Name": "Kisii Level 5 Hospital",
        "County": "Kisii",
        "Latitude": -0.6682,
        "Longitude": 34.7704
      },
      "geometry": {
        "type": "Point",
        "coordinates": [
          34.7704,
          -0.6682
        ]
      }
    },
    {
      "type": "Feature",
      "properties": {
        "Name": "Marani District Hospital",
        "County": "Kisii",
        "Latitude": -0.5781,
        "Longitude": 34.7989
      },
      "geometry": {
        "type": "Point",
        "coordinates": [
          34.7989,
          -0.5781
        ]
      }
    },
    {
      "type": "Feature",
      "properties": {
        "Name": "Nduru District Hospital",
        "County": "Kisii",
        "Latitude": -0.8078,
        "Longitude": 34.6281
      },
      "geometry": {
        "type": "Point",
        "coordinates": [
          34.6281,
          -0.8078
        ]
      }
    },
    {
      "type": "Feature",
      "properties": {
        "Name": "Nyamache District Hospital",
        "County": "Kisii",
        "Latitude": -0.8535,
        "Longitude": 34.8281
      },
      "geometry": {
        "type": "Point",
        "coordinates": [
          34.8281,
          -0.8535
        ]
      }
    },
    {
      "type": "Feature",
      "properties": {
        "Name": "Ahero County Hospital",
        "County": "Kisumu",
        "Latitude": -0.1708,
        "Longitude": 34.9231
      },
      "geometry": {
        "type": "Point",
        "coordinates": [
          34.9231,
          -0.1708
        ]
      }
    },
    {
      "type": "Feature",
      "properties": {
        "Name": "Kisumu District Hospital",
        "County": "Kisumu",
        "Latitude": -0.0989,
        "Longitude": 34.7552
      },
      "geometry": {
        "type": "Point",
        "coordinates": [
          34.7552,
          -0.0989
        ]
      }
    },
    {
      "type": "Feature",
      "properties": {
        "Name": "Kombewa District Hospital",
        "County": "Kisumu",
        "Latitude": -0.1012,
        "Longitude": 34.5171
      },
      "geometry": {
        "type": "Point",
        "coordinates": [
          34.5171,
          -0.1012
        ]
      }
    },
    {
      "type": "Feature",
      "properties": {
        "Name": "Nyanza Provincial General Hospital",
        "County": "Kisumu",
        "Latitude": -0.0864,
        "Longitude": 34.7702
      },
      "geometry": {
        "type": "Point",
        "coordinates": [
          34.7702,
          -0.0864
        ]
      }
    },
    {
      "type": "Feature",
      "properties": {
        "Name": "Kitui District Hospital",
        "County": "Kitui",
        "Latitude": -1.3656,
        "Longitude": 38.0119
      },
      "geometry": {
        "type": "Point",
        "coordinates": [
          38.0119,
          -1.3656
        ]
      }
    },
    {
      "type": "Feature",
      "properties": {
        "Name": "Kyuso District Hospital",
        "County": "Kitui",
        "Latitude": -0.5517,
        "Longitude": 38.218
      },
      "geometry": {
        "type": "Point",
        "coordinates": [
          38.218,
          -0.5517
        ]
      }
    },
    {
      "type": "Feature",
      "properties": {
        "Name": "Mwingi District Hospital",
        "County": "Kitui",
        "Latitude": -0.9346,
        "Longitude": 38.0608
      },
      "geometry": {
        "type": "Point",
        "coordinates": [
          38.0608,
          -0.9346
        ]
      }
    },
    {
      "type": "Feature",
      "properties": {
        "Name": "Kinango District Hospital",
        "County": "Kwale",
        "Latitude": -4.1399,
        "Longitude": 39.3132
      },
      "geometry": {
        "type": "Point",
        "coordinates": [
          39.3132,
          -4.1399
        ]
      }
    },
    {
      "type": "Feature",
      "properties": {
        "Name": "Kwale District Hospital",
        "County": "Kwale",
        "Latitude": -4.1751,
        "Longitude": 39.456
      },
      "geometry": {
        "type": "Point",
        "coordinates": [
          39.456,
          -4.1751
        ]
      }
    },
    {
      "type": "Feature",
      "properties": {
        "Name": "Msambweni District Hospital",
        "County": "Kwale",
        "Latitude": -4.4801,
        "Longitude": 39.4708
      },
      "geometry": {
        "type": "Point",
        "coordinates": [
          39.4708,
          -4.4801
        ]
      }
    },
    {
      "type": "Feature",
      "properties": {
        "Name": "Nanyuki District Hospital",
        "County": "Laikipia",
        "Latitude": 0.0151,
        "Longitude": 37.0789
      },
      "geometry": {
        "type": "Point",
        "coordinates": [
          37.0789,
          0.0151
        ]
      }
    },
    {
      "type": "Feature",
      "properties": {
        "Name": "Nyahururu District Hospital",
        "County": "Laikipia",
        "Latitude": 0.038,
        "Longitude": 36.3595
      },
      "geometry": {
        "type": "Point",
        "coordinates": [
          36.3595,
          0.038
        ]
      }
    },
    {
      "type": "Feature",
      "properties": {
        "Name": "Rumuruti District Hospital",
        "County": "Laikipia",
        "Latitude": 0.0347,
        "Longitude": 36.3638
      },
      "geometry": {
        "type": "Point",
        "coordinates": [
          36.3638,
          0.0347
        ]
      }
    },
    {
      "type": "Feature",
      "properties": {
        "Name": "Faza Hospital",
        "County": "Lamu",
        "Latitude": -2.0579,
        "Longitude": 41.1112
      },
      "geometry": {
        "type": "Point",
        "coordinates": [
          41.1112,
          -2.0579
        ]
      }
    },
    {
      "type": "Feature",
      "properties": {
        "Name": "Lamu District Hospital",
        "County": "Lamu",
        "Latitude": -2.2786,
        "Longitude": 40.9068
      },
      "geometry": {
        "type": "Point",
        "coordinates": [
          40.9068,
          -2.2786
        ]
      }
    },
    {
      "type": "Feature",
      "properties": {
        "Name": "Kangundo District Hospital",
        "County": "Machakos",
        "Latitude": -1.2956,
        "Longitude": 37.3454
      },
      "geometry": {
        "type": "Point",
        "coordinates": [
          37.3454,
          -1.2956
        ]
      }
    },
    {
      "type": "Feature",
      "properties": {
        "Name": "Kathiani District Hospital",
        "County": "Machakos",
        "Latitude": -1.4106,
        "Longitude": 37.3277
      },
      "geometry": {
        "type": "Point",
        "coordinates": [
          37.3277,
          -1.4106
        ]
      }
    },
    {
      "type": "Feature",
      "properties": {
        "Name": "Machakos Level 5 Hospital",
        "County": "Machakos",
        "Latitude": -1.5204,
        "Longitude": 37.2665
      },
      "geometry": {
        "type": "Point",
        "coordinates": [
          37.2665,
          -1.5204
        ]
      }
    },
    {
      "type": "Feature",
      "properties": {
        "Name": "Matuu District Hospital",
        "County": "Machakos",
        "Latitude": -1.148009,
        "Longitude": 37.534611
      },
      "geometry": {
        "type": "Point",
        "coordinates": [
          37.5475,
          -1.1483
        ]
      }
    },
    {
      "type": "Feature",
      "properties": {
        "Name": "Makindu District Hospital",
        "County": "Makueni",
        "Latitude": -2.2813,
        "Longitude": 37.8241
      },
      "geometry": {
        "type": "Point",
        "coordinates": [
          37.8241,
          -2.2813
        ]
      }
    },
    {
      "type": "Feature",
      "properties": {
        "Name": "Makueni District Hospital",
        "County": "Makueni",
        "Latitude": -1.781,
        "Longitude": 37.627
      },
      "geometry": {
        "type": "Point",
        "coordinates": [
          37.627,
          -1.781
        ]
      }
    },
    {
      "type": "Feature",
      "properties": {
        "Name": "Matiliku District Hospital",
        "County": "Makueni",
        "Latitude": -1.9465,
        "Longitude": 37.535
      },
      "geometry": {
        "type": "Point",
        "coordinates": [
          37.535,
          -1.9465
        ]
      }
    },
    {
      "type": "Feature",
      "properties": {
        "Name": "Mbooni District Hospital",
        "County": "Makueni",
        "Latitude": -1.6565,
        "Longitude": 37.4532
      },
      "geometry": {
        "type": "Point",
        "coordinates": [
          37.4532,
          -1.6565
        ]
      }
    },
    {
      "type": "Feature",
      "properties": {
        "Name": "Elwak District Hospital",
        "County": "Mandera",
        "Latitude": 2.8055,
        "Longitude": 40.9304
      },
      "geometry": {
        "type": "Point",
        "coordinates": [
          40.9304,
          2.8055
        ]
      }
    },
    {
      "type": "Feature",
      "properties": {
        "Name": "Mandera District Hospital",
        "County": "Mandera",
        "Latitude": 3.9384,
        "Longitude": 41.8645
      },
      "geometry": {
        "type": "Point",
        "coordinates": [
          41.8645,
          3.9384
        ]
      }
    },
    {
      "type": "Feature",
      "properties": {
        "Name": "Takaba District Hospital",
        "County": "Mandera",
        "Latitude": 3.3928,
        "Longitude": 40.2257
      },
      "geometry": {
        "type": "Point",
        "coordinates": [
          40.2257,
          3.3928
        ]
      }
    },
    {
      "type": "Feature",
      "properties": {
        "Name": "Kalacha Hospital",
        "County": "Marsabit",
        "Latitude": 3.1269,
        "Longitude": 37.4248
      },
      "geometry": {
        "type": "Point",
        "coordinates": [
          37.4248,
          3.1269
        ]
      }
    },
    {
      "type": "Feature",
      "properties": {
        "Name": "Marsabit District Hospital",
        "County": "Marsabit",
        "Latitude": 2.3239,
        "Longitude": 37.9909
      },
      "geometry": {
        "type": "Point",
        "coordinates": [
          37.9909,
          2.3239
        ]
      }
    },
    {
      "type": "Feature",
      "properties": {
        "Name": "Moyale District Hospital",
        "County": "Marsabit",
        "Latitude": 3.5225,
        "Longitude": 39.05
      },
      "geometry": {
        "type": "Point",
        "coordinates": [
          39.05,
          3.5225
        ]
      }
    },
    {
      "type": "Feature",
      "properties": {
        "Name": "Githongo District Hospital",
        "County": "Meru",
        "Latitude": -0.0025,
        "Longitude": 37.5913
      },
      "geometry": {
        "type": "Point",
        "coordinates": [
          37.5913,
          -0.0025
        ]
      }
    },
    {
      "type": "Feature",
      "properties": {
        "Name": "Kanyakine District Hospital",
        "County": "Meru",
        "Latitude": -0.1291,
        "Longitude": 37.6756
      },
      "geometry": {
        "type": "Point",
        "coordinates": [
          37.6756,
          -0.1291
        ]
      }
    },
    {
      "type": "Feature",
      "properties": {
        "Name": "Meru District Hospital",
        "County": "Meru",
        "Latitude": 0.0512,
        "Longitude": 37.6508
      },
      "geometry": {
        "type": "Point",
        "coordinates": [
          37.6508,
          0.0512
        ]
      }
    },
    {
      "type": "Feature",
      "properties": {
        "Name": "Miathene District Hospital",
        "County": "Meru",
        "Latitude": 0.1509,
        "Longitude": 37.7899
      },
      "geometry": {
        "type": "Point",
        "coordinates": [
          37.7899,
          0.1509
        ]
      }
    },
    {
      "type": "Feature",
      "properties": {
        "Name": "Nyambene District Hospital",
        "County": "Meru",
        "Latitude": 0.246,
        "Longitude": 37.87
      },
      "geometry": {
        "type": "Point",
        "coordinates": [
          37.87,
          0.246
        ]
      }
    },
    {
      "type": "Feature",
      "properties": {
        "Name": "Kegonga District Hospital",
        "County": "Migori",
        "Latitude": -1.2559,
        "Longitude": 34.6521
      },
      "geometry": {
        "type": "Point",
        "coordinates": [
          34.6521,
          -1.2559
        ]
      }
    },
    {
      "type": "Feature",
      "properties": {
        "Name": "Kuria District Hospital",
        "County": "Migori",
        "Latitude": -1.1801,
        "Longitude": 34.6283
      },
      "geometry": {
        "type": "Point",
        "coordinates": [
          34.6283,
          -1.1801
        ]
      }
    },
    {
      "type": "Feature",
      "properties": {
        "Name": "Migori District Hospital",
        "County": "Migori",
        "Latitude": -1.0604,
        "Longitude": 34.4763
      },
      "geometry": {
        "type": "Point",
        "coordinates": [
          34.4763,
          -1.0604
        ]
      }
    },
    {
      "type": "Feature",
      "properties": {
        "Name": "Rongo District Hospital",
        "County": "Migori",
        "Latitude": -0.7579,
        "Longitude": 34.6031
      },
      "geometry": {
        "type": "Point",
        "coordinates": [
          34.6031,
          -0.7579
        ]
      }
    },
    {
      "type": "Feature",
      "properties": {
        "Name": "Bomu Medical Hospital Changamwe",
        "County": "Mombasa",
        "Latitude": -4.0277,
        "Longitude": 39.6169
      },
      "geometry": {
        "type": "Point",
        "coordinates": [
          39.6169,
          -4.0277
        ]
      }
    },
    {
      "type": "Feature",
      "properties": {
        "Name": "Coast Province General Hospital",
        "County": "Mombasa",
        "Latitude": -4.028,
        "Longitude": 39.6862
      },
      "geometry": {
        "type": "Point",
        "coordinates": [
          39.6862,
          -4.028
        ]
      }
    },
    {
      "type": "Feature",
      "properties": {
        "Name": "Likoni District Hospital",
        "County": "Mombasa",
        "Latitude": -4.0852,
        "Longitude": 39.6555
      },
      "geometry": {
        "type": "Point",
        "coordinates": [
          39.6555,
          -4.0852
        ]
      }
    },
    {
      "type": "Feature",
      "properties": {
        "Name": "Port Reitz District Hospital",
        "County": "Mombasa",
        "Latitude": -4.0393,
        "Longitude": 39.6029
      },
      "geometry": {
        "type": "Point",
        "coordinates": [
          39.6029,
          -4.0393
        ]
      }
    },
    {
      "type": "Feature",
      "properties": {
        "Name": "Tudor District Hospital",
        "County": "Mombasa",
        "Latitude": -4.0399,
        "Longitude": 39.664
      },
      "geometry": {
        "type": "Point",
        "coordinates": [
          39.664,
          -4.0399
        ]
      }
    },
    {
      "type": "Feature",
      "properties": {
        "Name": "Maragua District Hospital",
        "County": "Murang'a",
        "Latitude": -0.7869,
        "Longitude": 37.1266
      },
      "geometry": {
        "type": "Point",
        "coordinates": [
          37.1266,
          -0.7869
        ]
      }
    },
    {
      "type": "Feature",
      "properties": {
        "Name": "Murang'a District Hospital",
        "County": "Murang'a",
        "Latitude": -0.7159,
        "Longitude": 37.1599
      },
      "geometry": {
        "type": "Point",
        "coordinates": [
          37.1599,
          -0.7159
        ]
      }
    },
    {
      "type": "Feature",
      "properties": {
        "Name": "Kenyatta National Hospital",
        "County": "Nairobi",
        "Latitude": -1.3009,
        "Longitude": 36.8064
      },
      "geometry": {
        "type": "Point",
        "coordinates": [
          36.8064,
          -1.3009
        ]
      }
    },
    {
      "type": "Feature",
      "properties": {
        "Name": "Mama Lucy Kibaki Hospital",
        "County": "Nairobi",
        "Latitude": -1.2739,
        "Longitude": 36.8985
      },
      "geometry": {
        "type": "Point",
        "coordinates": [
          36.8985,
          -1.2739
        ]
      }
    },
    {
      "type": "Feature",
      "properties": {
        "Name": "Mbagathi District Hospital",
        "County": "Nairobi",
        "Latitude": -1.3079,
        "Longitude": 36.8022
      },
      "geometry": {
        "type": "Point",
        "coordinates": [
          36.8022,
          -1.3079
        ]
      }
    },
    {
      "type": "Feature",
      "properties": {
        "Name": "Mukuru Provide International Hospital",
        "County": "Nairobi",
        "Latitude": -1.3252,
        "Longitude": 36.8972
      },
      "geometry": {
        "type": "Point",
        "coordinates": [
          36.8972,
          -1.3252
        ]
      }
    },
    {
      "type": "Feature",
      "properties": {
        "Name": "St Mac's Hospital",
        "County": "Nairobi",
        "Latitude": -1.312,
        "Longitude": 36.7979
      },
      "geometry": {
        "type": "Point",
        "coordinates": [
          36.7979,
          -1.312
        ]
      }
    },
    {
      "type": "Feature",
      "properties": {
        "Name": "Bahati District Hospital",
        "County": "Nakuru",
        "Latitude": -0.1674,
        "Longitude": 36.1232
      },
      "geometry": {
        "type": "Point",
        "coordinates": [
          36.1232,
          -0.1674
        ]
      }
    },
    {
      "type": "Feature",
      "properties": {
        "Name": "Molo District Hospital",
        "County": "Nakuru",
        "Latitude": -0.245,
        "Longitude": 35.7405
      },
      "geometry": {
        "type": "Point",
        "coordinates": [
          35.7405,
          -0.245
        ]
      }
    },
    {
      "type": "Feature",
      "properties": {
        "Name": "Naivasha District Hospital",
        "County": "Nakuru",
        "Latitude": -0.7163,
        "Longitude": 36.4375
      },
      "geometry": {
        "type": "Point",
        "coordinates": [
          36.4375,
          -0.7163
        ]
      }
    },
    {
      "type": "Feature",
      "properties": {
        "Name": "Nakuru Provincial General Hospital",
        "County": "Nakuru",
        "Latitude": -0.2813,
        "Longitude": 36.0732
      },
      "geometry": {
        "type": "Point",
        "coordinates": [
          36.0732,
          -0.2813
        ]
      }
    },
    {
      "type": "Feature",
      "properties": {
        "Name": "Rhein Valley Hospital",
        "County": "Nakuru",
        "Latitude": -0.3645,
        "Longitude": 36.2409
      },
      "geometry": {
        "type": "Point",
        "coordinates": [
          36.2409,
          -0.3645
        ]
      }
    },
    {
      "type": "Feature",
      "properties": {
        "Name": "Kapsabet District Hospital",
        "County": "Nandi",
        "Latitude": 0.2032,
        "Longitude": 35.0994
      },
      "geometry": {
        "type": "Point",
        "coordinates": [
          35.0994,
          0.2032
        ]
      }
    },
    {
      "type": "Feature",
      "properties": {
        "Name": "Nandi Hills District Hospital",
        "County": "Nandi",
        "Latitude": 0.1047,
        "Longitude": 35.183
      },
      "geometry": {
        "type": "Point",
        "coordinates": [
          35.183,
          0.1047
        ]
      }
    },
    {
      "type": "Feature",
      "properties": {
        "Name": "Narok District Hospital",
        "County": "Narok",
        "Latitude": -1.0914,
        "Longitude": 35.8707
      },
      "geometry": {
        "type": "Point",
        "coordinates": [
          35.8707,
          -1.0914
        ]
      }
    },
    {
      "type": "Feature",
      "properties": {
        "Name": "Ololulunga District Hospital",
        "County": "Narok",
        "Latitude": -1.0027,
        "Longitude": 35.6647
      },
      "geometry": {
        "type": "Point",
        "coordinates": [
          35.6647,
          -1.0027
        ]
      }
    },
    {
      "type": "Feature",
      "properties": {
        "Name": "Transmara District Hospital",
        "County": "Narok",
        "Latitude": -1.0077,
        "Longitude": 34.8818
      },
      "geometry": {
        "type": "Point",
        "coordinates": [
          34.8818,
          -1.0077
        ]
      }
    },
    {
      "type": "Feature",
      "properties": {
        "Name": "Manga District Hospital",
        "County": "Nyamira",
        "Latitude": -0.6132,
        "Longitude": 34.8362
      },
      "geometry": {
        "type": "Point",
        "coordinates": [
          34.8362,
          -0.6132
        ]
      }
    },
    {
      "type": "Feature",
      "properties": {
        "Name": "Masaba District Hospital",
        "County": "Nyamira",
        "Latitude": -0.781,
        "Longitude": 34.9483
      },
      "geometry": {
        "type": "Point",
        "coordinates": [
          34.9483,
          -0.781
        ]
      }
    },
    {
      "type": "Feature",
      "properties": {
        "Name": "Nyamira District Hospital",
        "County": "Nyamira",
        "Latitude": -0.5624,
        "Longitude": 34.9352
      },
      "geometry": {
        "type": "Point",
        "coordinates": [
          34.9352,
          -0.5624
        ]
      }
    },
    {
      "type": "Feature",
      "properties": {
        "Name": "Engineer District Hospital",
        "County": "Nyandarua",
        "Latitude": -0.6078,
        "Longitude": 36.5741
      },
      "geometry": {
        "type": "Point",
        "coordinates": [
          36.5741,
          -0.6078
        ]
      }
    },
    {
      "type": "Feature",
      "properties": {
        "Name": "Karatina District Hospital",
        "County": "Nyeri",
        "Latitude": -0.4758,
        "Longitude": 37.1302
      },
      "geometry": {
        "type": "Point",
        "coordinates": [
          37.1302,
          -0.4758
        ]
      }
    },
    {
      "type": "Feature",
      "properties": {
        "Name": "Mukurweini District Hospital",
        "County": "Nyeri",
        "Latitude": -0.5592,
        "Longitude": 37.0446
      },
      "geometry": {
        "type": "Point",
        "coordinates": [
          37.0446,
          -0.5592
        ]
      }
    },
    {
      "type": "Feature",
      "properties": {
        "Name": "Nyeri Provincial General Hospital",
        "County": "Nyeri",
        "Latitude": -0.424,
        "Longitude": 36.9611
      },
      "geometry": {
        "type": "Point",
        "coordinates": [
          36.9611,
          -0.424
        ]
      }
    },
    {
      "type": "Feature",
      "properties": {
        "Name": "Maralal District Hospital",
        "County": "Samburu",
        "Latitude": 1.0963,
        "Longitude": 36.6993
      },
      "geometry": {
        "type": "Point",
        "coordinates": [
          36.6993,
          1.0963
        ]
      }
    },
    {
      "type": "Feature",
      "properties": {
        "Name": "Bondo District Hospital",
        "County": "Siaya",
        "Latitude": -0.0902,
        "Longitude": 34.2745
      },
      "geometry": {
        "type": "Point",
        "coordinates": [
          34.2745,
          -0.0902
        ]
      }
    },
    {
      "type": "Feature",
      "properties": {
        "Name": "Sega Cottage Hospital",
        "County": "Siaya",
        "Latitude": 0.2593,
        "Longitude": 34.2255
      },
      "geometry": {
        "type": "Point",
        "coordinates": [
          34.2255,
          0.2593
        ]
      }
    },
    {
      "type": "Feature",
      "properties": {
        "Name": "Siaya District Hospital",
        "County": "Siaya",
        "Latitude": 0.0631,
        "Longitude": 34.2839
      },
      "geometry": {
        "type": "Point",
        "coordinates": [
          34.2839,
          0.0631
        ]
      }
    },
    {
      "type": "Feature",
      "properties": {
        "Name": "Taveta District Hospital",
        "County": "Taita Taveta",
        "Latitude": -3.3987,
        "Longitude": 37.6773
      },
      "geometry": {
        "type": "Point",
        "coordinates": [
          37.6773,
          -3.3987
        ]
      }
    },
    {
      "type": "Feature",
      "properties": {
        "Name": "Voi Moi District Hospital",
        "County": "Taita Taveta",
        "Latitude": -3.3909,
        "Longitude": 38.5621
      },
      "geometry": {
        "type": "Point",
        "coordinates": [
          38.5621,
          -3.3909
        ]
      }
    },
    {
      "type": "Feature",
      "properties": {
        "Name": "Wesu District Hospital",
        "County": "Taita Taveta",
        "Latitude": -3.4087,
        "Longitude": 38.3422
      },
      "geometry": {
        "type": "Point",
        "coordinates": [
          38.3422,
          -3.4087
        ]
      }
    },
    {
      "type": "Feature",
      "properties": {
        "Name": "Bura District Hospital",
        "County": "Tana River",
        "Latitude": -1.1945,
        "Longitude": 39.8399
      },
      "geometry": {
        "type": "Point",
        "coordinates": [
          39.8399,
          -1.1945
        ]
      }
    },
    {
      "type": "Feature",
      "properties": {
        "Name": "Hola District Hospital",
        "County": "Tana River",
        "Latitude": -1.4988,
        "Longitude": 40.0303
      },
      "geometry": {
        "type": "Point",
        "coordinates": [
          40.0303,
          -1.4988
        ]
      }
    },
    {
      "type": "Feature",
      "properties": {
        "Name": "Ngao District Hospital",
        "County": "Tana River",
        "Latitude": -2.4122,
        "Longitude": 40.2011
      },
      "geometry": {
        "type": "Point",
        "coordinates": [
          40.2011,
          -2.4122
        ]
      }
    },
    {
      "type": "Feature",
      "properties": {
        "Name": "Chuka District Hospital",
        "County": "Tharaka Nithi",
        "Latitude": -0.3356,
        "Longitude": 37.6458
      },
      "geometry": {
        "type": "Point",
        "coordinates": [
          37.6458,
          -0.3356
        ]
      }
    },
    {
      "type": "Feature",
      "properties": {
        "Name": "Magutuni District Hospital",
        "County": "Tharaka Nithi",
        "Latitude": -0.2306,
        "Longitude": 37.7361
      },
      "geometry": {
        "type": "Point",
        "coordinates": [
          37.7361,
          -0.2306
        ]
      }
    },
    {
      "type": "Feature",
      "properties": {
        "Name": "Tharaka District Hospital",
        "County": "Tharaka Nithi",
        "Latitude": -0.1582,
        "Longitude": 37.9753
      },
      "geometry": {
        "type": "Point",
        "coordinates": [
          37.9753,
          -0.1582
        ]
      }
    },
    {
      "type": "Feature",
      "properties": {
        "Name": "Endebess District Hospital",
        "County": "Trans Nzoia",
        "Latitude": 1.0734,
        "Longitude": 34.8569
      },
      "geometry": {
        "type": "Point",
        "coordinates": [
          34.8569,
          1.0734
        ]
      }
    },
    {
      "type": "Feature",
      "properties": {
        "Name": "Kapsara District Hospital",
        "County": "Trans Nzoia",
        "Latitude": 1.0919,
        "Longitude": 35.155
      },
      "geometry": {
        "type": "Point",
        "coordinates": [
          35.155,
          1.0919
        ]
      }
    },
    {
      "type": "Feature",
      "properties": {
        "Name": "Kitale District Hospital",
        "County": "Trans Nzoia",
        "Latitude": 1.017,
        "Longitude": 35.0037
      },
      "geometry": {
        "type": "Point",
        "coordinates": [
          35.0037,
          1.017
        ]
      }
    },
    {
      "type": "Feature",
      "properties": {
        "Name": "Kakuma IRC  Hospital",
        "County": "Turkana",
        "Latitude": 3.7354,
        "Longitude": 34.8396
      },
      "geometry": {
        "type": "Point",
        "coordinates": [
          34.8396,
          3.7354
        ]
      }
    },
    {
      "type": "Feature",
      "properties": {
        "Name": "Katilu District Hospital",
        "County": "Turkana",
        "Latitude": 2.2743,
        "Longitude": 35.4297
      },
      "geometry": {
        "type": "Point",
        "coordinates": [
          35.4297,
          2.2743
        ]
      }
    },
    {
      "type": "Feature",
      "properties": {
        "Name": "Lodwar District Hospital",
        "County": "Turkana",
        "Latitude": 3.1192,
        "Longitude": 35.6013
      },
      "geometry": {
        "type": "Point",
        "coordinates": [
          35.6013,
          3.1192
        ]
      }
    },
    {
      "type": "Feature",
      "properties": {
        "Name": "Huruma District Hospital",
        "County": "Uasin Gishu",
        "Latitude": 0.5295,
        "Longitude": 35.2471
      },
      "geometry": {
        "type": "Point",
        "coordinates": [
          35.2471,
          0.5295
        ]
      }
    },
    {
      "type": "Feature",
      "properties": {
        "Name": "Moi Teaching Referral Hospital",
        "County": "Uasin Gishu",
        "Latitude": 0.5112,
        "Longitude": 35.2803
      },
      "geometry": {
        "type": "Point",
        "coordinates": [
          35.2803,
          0.5112
        ]
      }
    },
    {
      "type": "Feature",
      "properties": {
        "Name": "Uasin Gishu District Hospital",
        "County": "Uasin Gishu",
        "Latitude": 0.5206,
        "Longitude": 35.2648
      },
      "geometry": {
        "type": "Point",
        "coordinates": [
          35.2648,
          0.5206
        ]
      }
    },
    {
      "type": "Feature",
      "properties": {
        "Name": "Mung'oma Hospital",
        "County": "Vihiga",
        "Latitude": 0.0808,
        "Longitude": 34.7216
      },
      "geometry": {
        "type": "Point",
        "coordinates": [
          34.7216,
          0.0808
        ]
      }
    },
    {
      "type": "Feature",
      "properties": {
        "Name": "Vihiga District Hosptial",
        "County": "Vihiga",
        "Latitude": 0.0798,
        "Longitude": 34.7221
      },
      "geometry": {
        "type": "Point",
        "coordinates": [
          34.7221,
          0.0798
        ]
      }
    },
    {
      "type": "Feature",
      "properties": {
        "Name": "Bute District Hospital",
        "County": "Wajir",
        "Latitude": 3.3738,
        "Longitude": 39.4226
      },
      "geometry": {
        "type": "Point",
        "coordinates": [
          39.4226,
          3.3738
        ]
      }
    },
    {
      "type": "Feature",
      "properties": {
        "Name": "Griftu District Hospital",
        "County": "Wajir",
        "Latitude": 1.9998,
        "Longitude": 39.7542
      },
      "geometry": {
        "type": "Point",
        "coordinates": [
          39.7542,
          1.9998
        ]
      }
    },
    {
      "type": "Feature",
      "properties": {
        "Name": "Habaswein District Hospital",
        "County": "Wajir",
        "Latitude": 1.0184,
        "Longitude": 39.4939
      },
      "geometry": {
        "type": "Point",
        "coordinates": [
          39.4939,
          1.0184
        ]
      }
    },
    {
      "type": "Feature",
      "properties": {
        "Name": "Wajir County Referral Hospital",
        "County": "Wajir",
        "Latitude": 1.7476,
        "Longitude": 40.0623
      },
      "geometry": {
        "type": "Point",
        "coordinates": [
          40.0623,
          1.7476
        ]
      }
    },
    {
      "type": "Feature",
      "properties": {
        "Name": "Kacheliba District Hospital",
        "County": "West Pokot",
        "Latitude": 1.4901,
        "Longitude": 35.0107
      },
      "geometry": {
        "type": "Point",
        "coordinates": [
          35.0107,
          1.4901
        ]
      }
    },
    {
      "type": "Feature",
      "properties": {
        "Name": "Kapenguria District Hospital",
        "County": "West Pokot",
        "Latitude": 1.2401,
        "Longitude": 35.1184
      },
      "geometry": {
        "type": "Point",
        "coordinates": [
          35.1184,
          1.2401
        ]
      }
    }
  ]
}
