{
"type": "FeatureCollection",
"name": "kenya_hospitals_per_county.csv",
"features": [
{ "type": "Feature", "properties": { "Name": "Coast General Teaching & Referral Hospital", "County": "Mombasa", "Latitude": -4.0435, "Longitude": 39.6682 }, "geometry": { "type": "Point", "coordinates": [ 39.6682, -4.0435 ] } },
{ "type": "Feature", "properties": { "Name": "Msambweni County Referral Hospital", "County": "Kwale", "Latitude": -4.4736, "Longitude": 39.4602 }, "geometry": { "type": "Point", "coordinates": [ 39.4602, -4.4736 ] } },
{ "type": "Feature", "properties": { "Name": "Kilifi County Hospital", "County": "Kilifi", "Latitude": -3.6333, "Longitude": 39.85 }, "geometry": { "type": "Point", "coordinates": [ 39.85, -3.6333 ] } },
{ "type": "Feature", "properties": { "Name": "Hola County Referral Hospital", "County": "Tana River", "Latitude": -1.4987, "Longitude": 40.0336 }, "geometry": { "type": "Point", "coordinates": [ 40.0336, -1.4987 ] } },
{ "type": "Feature", "properties": { "Name": "King Fahad County Hospital", "County": "Lamu", "Latitude": -2.2717, "Longitude": 40.902 }, "geometry": { "type": "Point", "coordinates": [ 40.902, -2.2717 ] } },
{ "type": "Feature", "properties": { "Name": "Moi County Referral Hospital - Voi", "County": "Taita Taveta", "Latitude": -3.3955, "Longitude": 38.556 }, "geometry": { "type": "Point", "coordinates": [ 38.556, -3.3955 ] } },
{ "type": "Feature", "properties": { "Name": "Garissa County Referral Hospital", "County": "Garissa", "Latitude": -0.4556, "Longitude": 39.646 }, "geometry": { "type": "Point", "coordinates": [ 39.646, -0.4556 ] } },
{ "type": "Feature", "properties": { "Name": "Wajir County Referral Hospital", "County": "Wajir", "Latitude": 1.7483, "Longitude": 40.0573 }, "geometry": { "type": "Point", "coordinates": [ 40.0573, 1.7483 ] } },
{ "type": "Feature", "properties": { "Name": "Mandera County Referral Hospital", "County": "Mandera", "Latitude": 3.9376, "Longitude": 41.8569 }, "geometry": { "type": "Point", "coordinates": [ 41.8569, 3.9376 ] } },
{ "type": "Feature", "properties": { "Name": "Marsabit County Referral Hospital", "County": "Marsabit", "Latitude": 2.3301, "Longitude": 37.9908 }, "geometry": { "type": "Point", "coordinates": [ 37.9908, 2.3301 ] } },
{ "type": "Feature", "properties": { "Name": "Isiolo County Referral Hospital", "County": "Isiolo", "Latitude": 0.3546, "Longitude": 37.5822 }, "geometry": { "type": "Point", "coordinates": [ 37.5822, 0.3546 ] } },
{ "type": "Feature", "properties": { "Name": "Meru Teaching and Referral Hospital", "County": "Meru", "Latitude": 0.047, "Longitude": 37.6559 }, "geometry": { "type": "Point", "coordinates": [ 37.6559, 0.047 ] } },
{ "type": "Feature", "properties": { "Name": "Tharaka Nithi County Hospital", "County": "Tharaka-Nithi", "Latitude": -0.3206, "Longitude": 37.655 }, "geometry": { "type": "Point", "coordinates": [ 37.655, -0.3206 ] } },
{ "type": "Feature", "properties": { "Name": "Embu Level 5 Hospital", "County": "Embu", "Latitude": -0.5375, "Longitude": 37.4565 }, "geometry": { "type": "Point", "coordinates": [ 37.4565, -0.5375 ] } },
{ "type": "Feature", "properties": { "Name": "Kitui County Referral Hospital", "County": "Kitui", "Latitude": -1.3751, "Longitude": 38.0106 }, "geometry": { "type": "Point", "coordinates": [ 38.0106, -1.3751 ] } },
{ "type": "Feature", "properties": { "Name": "Machakos Level 5 Hospital", "County": "Machakos", "Latitude": -1.5177, "Longitude": 37.2634 }, "geometry": { "type": "Point", "coordinates": [ 37.2634, -1.5177 ] } },
{ "type": "Feature", "properties": { "Name": "Makueni County Referral Hospital", "County": "Makueni", "Latitude": -1.8028, "Longitude": 37.628 }, "geometry": { "type": "Point", "coordinates": [ 37.628, -1.8028 ] } },
{ "type": "Feature", "properties": { "Name": "JM Kariuki Memorial County Referral Hospital", "County": "Nyandarua", "Latitude": -0.1836, "Longitude": 36.3623 }, "geometry": { "type": "Point", "coordinates": [ 36.3623, -0.1836 ] } },
{ "type": "Feature", "properties": { "Name": "Nyeri County Referral Hospital", "County": "Nyeri", "Latitude": -0.4201, "Longitude": 36.9519 }, "geometry": { "type": "Point", "coordinates": [ 36.9519, -0.4201 ] } },
{ "type": "Feature", "properties": { "Name": "Kerugoya County Referral Hospital", "County": "Kirinyaga", "Latitude": -0.4989, "Longitude": 37.2803 }, "geometry": { "type": "Point", "coordinates": [ 37.2803, -0.4989 ] } },
{ "type": "Feature", "properties": { "Name": "Murangâ€™a County Referral Hospital", "County": "Murang'a", "Latitude": -0.7193, "Longitude": 37.1471 }, "geometry": { "type": "Point", "coordinates": [ 37.1471, -0.7193 ] } },
{ "type": "Feature", "properties": { "Name": "Kiambu Level 5 Hospital", "County": "Kiambu", "Latitude": -1.1721, "Longitude": 36.8356 }, "geometry": { "type": "Point", "coordinates": [ 36.8356, -1.1721 ] } },
{ "type": "Feature", "properties": { "Name": "Lodwar County Referral Hospital", "County": "Turkana", "Latitude": 3.1167, "Longitude": 35.6 }, "geometry": { "type": "Point", "coordinates": [ 35.6, 3.1167 ] } },
{ "type": "Feature", "properties": { "Name": "Kapenguria County Referral Hospital", "County": "West Pokot", "Latitude": 1.238, "Longitude": 35.112 }, "geometry": { "type": "Point", "coordinates": [ 35.112, 1.238 ] } },
{ "type": "Feature", "properties": { "Name": "Maralal County Referral Hospital", "County": "Samburu", "Latitude": 1.0966, "Longitude": 36.7016 }, "geometry": { "type": "Point", "coordinates": [ 36.7016, 1.0966 ] } },
{ "type": "Feature", "properties": { "Name": "Kitale County Referral Hospital", "County": "Trans Nzoia", "Latitude": 1.015, "Longitude": 35.0063 }, "geometry": { "type": "Point", "coordinates": [ 35.0063, 1.015 ] } },
{ "type": "Feature", "properties": { "Name": "Moi Teaching and Referral Hospital", "County": "Uasin Gishu", "Latitude": 0.5143, "Longitude": 35.2698 }, "geometry": { "type": "Point", "coordinates": [ 35.2698, 0.5143 ] } },
{ "type": "Feature", "properties": { "Name": "Iten County Referral Hospital", "County": "Elgeyo Marakwet", "Latitude": 0.6703, "Longitude": 35.5085 }, "geometry": { "type": "Point", "coordinates": [ 35.5085, 0.6703 ] } },
{ "type": "Feature", "properties": { "Name": "Kapsabet County Referral Hospital", "County": "Nandi", "Latitude": 0.2036, "Longitude": 35.1056 }, "geometry": { "type": "Point", "coordinates": [ 35.1056, 0.2036 ] } },
{ "type": "Feature", "properties": { "Name": "Kabarnet County Referral Hospital", "County": "Baringo", "Latitude": 0.492, "Longitude": 35.7436 }, "geometry": { "type": "Point", "coordinates": [ 35.7436, 0.492 ] } },
{ "type": "Feature", "properties": { "Name": "Nanyuki Teaching and Referral Hospital", "County": "Laikipia", "Latitude": 0.0062, "Longitude": 37.0736 }, "geometry": { "type": "Point", "coordinates": [ 37.0736, 0.0062 ] } },
{ "type": "Feature", "properties": { "Name": "Nakuru Level 6 Hospital", "County": "Nakuru", "Latitude": -0.3031, "Longitude": 36.08 }, "geometry": { "type": "Point", "coordinates": [ 36.08, -0.3031 ] } },
{ "type": "Feature", "properties": { "Name": "Narok County Referral Hospital", "County": "Narok", "Latitude": -1.088, "Longitude": 35.871 }, "geometry": { "type": "Point", "coordinates": [ 35.871, -1.088 ] } },
{ "type": "Feature", "properties": { "Name": "Kajiado County Referral Hospital", "County": "Kajiado", "Latitude": -1.8535, "Longitude": 36.7776 }, "geometry": { "type": "Point", "coordinates": [ 36.7776, -1.8535 ] } },
{ "type": "Feature", "properties": { "Name": "Kericho County Referral Hospital", "County": "Kericho", "Latitude": -0.3671, "Longitude": 35.283 }, "geometry": { "type": "Point", "coordinates": [ 35.283, -0.3671 ] } },
{ "type": "Feature", "properties": { "Name": "Longisa County Referral Hospital", "County": "Bomet", "Latitude": -0.8456, "Longitude": 35.3553 }, "geometry": { "type": "Point", "coordinates": [ 35.3553, -0.8456 ] } },
{ "type": "Feature", "properties": { "Name": "Kakamega County General Hospital", "County": "Kakamega", "Latitude": 0.2827, "Longitude": 34.7519 }, "geometry": { "type": "Point", "coordinates": [ 34.7519, 0.2827 ] } },
{ "type": "Feature", "properties": { "Name": "Vihiga County Referral Hospital", "County": "Vihiga", "Latitude": 0.0143, "Longitude": 34.7282 }, "geometry": { "type": "Point", "coordinates": [ 34.7282, 0.0143 ] } },
{ "type": "Feature", "properties": { "Name": "Bungoma County Referral Hospital", "County": "Bungoma", "Latitude": 0.5646, "Longitude": 34.5584 }, "geometry": { "type": "Point", "coordinates": [ 34.5584, 0.5646 ] } },
{ "type": "Feature", "properties": { "Name": "Busia County Referral Hospital", "County": "Busia", "Latitude": 0.4598, "Longitude": 34.1246 }, "geometry": { "type": "Point", "coordinates": [ 34.1246, 0.4598 ] } },
{ "type": "Feature", "properties": { "Name": "Siaya County Referral Hospital", "County": "Siaya", "Latitude": 0.0612, "Longitude": 34.2884 }, "geometry": { "type": "Point", "coordinates": [ 34.2884, 0.0612 ] } },
{ "type": "Feature", "properties": { "Name": "Jaramogi Oginga Odinga Teaching & Referral Hospital", "County": "Kisumu", "Latitude": -0.1022, "Longitude": 34.7617 }, "geometry": { "type": "Point", "coordinates": [ 34.7617, -0.1022 ] } },
{ "type": "Feature", "properties": { "Name": "Homa Bay County Teaching & Referral Hospital", "County": "Homa Bay", "Latitude": -0.5274, "Longitude": 34.4576 }, "geometry": { "type": "Point", "coordinates": [ 34.4576, -0.5274 ] } },
{ "type": "Feature", "properties": { "Name": "Migori County Referral Hospital", "County": "Migori", "Latitude": -1.0634, "Longitude": 34.4731 }, "geometry": { "type": "Point", "coordinates": [ 34.4731, -1.0634 ] } },
{ "type": "Feature", "properties": { "Name": "Kisii Teaching & Referral Hospital", "County": "Kisii", "Latitude": -0.6838, "Longitude": 34.7774 }, "geometry": { "type": "Point", "coordinates": [ 34.7774, -0.6838 ] } },
{ "type": "Feature", "properties": { "Name": "Nyamira County Referral Hospital", "County": "Nyamira", "Latitude": -0.5692, "Longitude": 34.9397 }, "geometry": { "type": "Point", "coordinates": [ 34.9397, -0.5692 ] } },
{ "type": "Feature", "properties": { "Name": "Kenyatta National Hospital", "County": "Nairobi", "Latitude": -1.3001, "Longitude": 36.8065 }, "geometry": { "type": "Point", "coordinates": [ 36.8065, -1.3001 ] } }
]
}
